{
  "casaPaolina": {
    "name": "Casa Paolina",
    "lat": 40.102558,
    "lng": 18.446024,
    "address": "Via Dante De Blasi, 15, Uggiano la Chiesa (LE)",
    "type": "accommodation"
  },
  "beaches": [
    {
      "id": "torre-orso",
      "name": "Torre dell'Orso",
      "lat": 40.272169,
      "lng": 18.430545,
      "type": "beach",
      "sandType": "fine_sand",
      "protectedFrom": ["W", "NW", "SW"],
      "exposed": ["E", "NE", "SE"],
      "description": "Beautiful sandy beach with crystal clear water and two famous rock formations",
      "translationKey": "beach_torre_orso",
      "bookingLink": "https://www.booking.com/beach/it/torre-dell-orso",
      "distance": "19 km",
      "facilities": ["parking", "restaurants", "umbrellas", "sunbeds"],
      "images": ["torre-orso-1.jpg"]
    },
    {
      "id": "faraglioni-santandrea",
      "name": "Faraglioni di Sant'Andrea",
      "lat": 40.256684,
      "lng": 18.444069,
      "type": "beach",
      "sandType": "rocks",
      "protectedFrom": ["W", "NW", "SW"],
      "exposed": ["E", "NE", "SE"],
      "description": "Spectacular rocky coastline with dramatic cliff formations",
      "translationKey": "beach_faraglioni",
      "bookingLink": null,
      "distance": "18 km",
      "facilities": ["parking"],
      "images": []
    },
    {
      "id": "baia-turchi",
      "name": "Baia dei Turchi",
      "lat": 40.19355,
      "lng": 18.463585,
      "type": "beach",
      "sandType": "white_sand",
      "protectedFrom": ["W", "NW", "N"],
      "exposed": ["E", "SE", "S"],
      "description": "Pristine white sand beach surrounded by pine forest",
      "translationKey": "beach_baia_turchi",
      "bookingLink": "https://www.booking.com/beach/it/baia-dei-turchi",
      "distance": "10 km",
      "facilities": ["parking", "beach_bar", "umbrellas"],
      "images": []
    },
    {
      "id": "alimini",
      "name": "Laghi Alimini",
      "lat": 40.200025,
      "lng": 18.459818,
      "type": "beach",
      "sandType": "golden_sand",
      "protectedFrom": ["W", "NW", "N"],
      "exposed": ["E", "SE", "S"],
      "description": "Long stretch of golden sand backed by natural lagoons",
      "translationKey": "beach_alimini",
      "bookingLink": "https://www.booking.com/beach/it/laghi-alimini",
      "distance": "11 km",
      "facilities": ["parking", "restaurants", "beach_clubs", "water_sports"],
      "images": []
    },
    {
      "id": "porto-badisco",
      "name": "Porto Badisco",
      "lat": 40.085,
      "lng": 18.4883,
      "type": "beach",
      "sandType": "pebbles",
      "protectedFrom": ["N", "NW", "W"],
      "exposed": ["E", "SE", "S"],
      "description": "Small, sheltered bay with clear water and ancient history",
      "translationKey": "beach_porto_badisco",
      "bookingLink": null,
      "distance": "3 km",
      "facilities": ["parking", "restaurant"],
      "images": []
    },
    {
      "id": "castro-marina",
      "name": "Castro Marina",
      "lat": 40.0106,
      "lng": 18.4294,
      "type": "beach",
      "sandType": "rocks",
      "protectedFrom": ["N", "NW", "W"],
      "exposed": ["E", "SE", "S"],
      "description": "Charming coastal town with sea caves and crystal waters",
      "translationKey": "beach_castro",
      "bookingLink": null,
      "distance": "12 km",
      "facilities": ["parking", "restaurants", "boat_tours", "diving"],
      "images": ["castro-marina.jpg"]
    },
    {
      "id": "porto-miggiano",
      "name": "Porto Miggiano",
      "lat": 40.032276,
      "lng": 18.446058,
      "type": "beach",
      "sandType": "rocks",
      "protectedFrom": ["N", "NW", "NE"],
      "exposed": ["E", "SE", "S"],
      "description": "Natural inlet with turquoise water perfect for snorkeling",
      "translationKey": "beach_porto_miggiano",
      "bookingLink": null,
      "distance": "9 km",
      "facilities": ["parking"],
      "images": ["Porto_Miggiano.jpg"]
    }, 
    {
      "id": "marina-serra",
      "name": "Marina Serra",
      "lat": 39.911808,
      "lng": 18.393354,
      "type": "beach",
      "sandType": "rocks",
      "protectedFrom": ["N", "NE", "NW"],
      "exposed": ["E", "SE", "S"],
      "description": "Natural rocky pool with crystal clear water",
      "translationKey": "beach_marina_serra",
      "bookingLink": null,
      "distance": "22 km",
      "facilities": ["parking", "bar"],
      "images": ["marina-serra.jpg"]
    },
    {
      "id": "cala-acquaviva",
      "name": "Cala dell'Acquaviva",
      "lat": 39.991484,
      "lng": 18.413863,
      "type": "beach",
      "sandType": "rocks",
      "protectedFrom": ["N", "NW", "W"],
      "exposed": ["E", "SE", "S"],
      "description": "Hidden natural inlet with emerald waters",
      "translationKey": "beach_acquaviva",
      "bookingLink": null,
      "distance": "14 km",
      "facilities": [],
      "images": []
    },
    {
      "id": "grotta-poesia",
      "name": "Grotta della Poesia",
      "lat": 40.285822,
      "lng": 18.429564,
      "type": "attraction",
      "sandType": "rocks",
      "protectedFrom": ["W", "SW", "NW"],
      "exposed": ["E", "NE", "SE"],
      "description": "Famous natural cave pool with crystal clear water",
      "translationKey": "beach_grotta_poesia",
      "bookingLink": null,
      "distance": "20 km",
      "facilities": ["parking"],
      "images": []
    },
    {
      "id": "grotta-verde",
      "name": "Grotta Verde",
      "lat": 39.963653,
      "lng": 18.4041,
      "type": "attraction",
      "sandType": "rocks",
      "protectedFrom": ["N", "NW", "W"],
      "exposed": ["E", "SE", "S"],
      "description": "Natural sea cave with green luminescence phenomenon",
      "translationKey": "beach_grotta_verde",
      "bookingLink": null,
      "distance": "17 km",
      "facilities": ["boat_access"],
      "images": []
    },
    {
      "id": "santa-cesarea",
      "name": "Santa Cesarea Terme",
      "lat": 40.0333,
      "lng": 18.45,
      "type": "beach",
      "sandType": "rocks",
      "protectedFrom": ["N", "NW", "W"],
      "exposed": ["E", "SE", "S"],
      "description": "Thermal spa town with therapeutic waters",
      "translationKey": "beach_santa_cesarea",
      "bookingLink": null,
      "distance": "11 km",
      "facilities": ["parking", "restaurants", "thermal_spa"],
      "images": ["santa-cesarea.jpg"]
    },
    {
      "id": "gradoni",
      "name": "Spiaggia dei Gradoni",
      "lat": 40.149091,
      "lng": 18.486969,
      "type": "beach",
      "sandType": "pebbles",
      "protectedFrom": ["W", "NW", "N"],
      "exposed": ["E", "SE", "S"],
      "description": "City beach with easy access and amenities",
      "translationKey": "beach_gradoni",
      "bookingLink": "https://www.booking.com/beach/it/otranto",
      "distance": "5 km",
      "facilities": ["parking", "restaurants", "umbrellas", "showers"],
      "images": []
    },
    {
      "id": "porto-selvaggio",
      "name": "Porto Selvaggio",
      "lat": 40.147889,
      "lng": 17.975022,
      "type": "beach",
      "sandType": "rocks",
      "protectedFrom": ["E", "NE", "SE"],
      "exposed": ["W", "NW", "SW"],
      "description": "Wild natural reserve with pristine rocky coastline",
      "translationKey": "beach_porto_selvaggio",
      "bookingLink": null,
      "distance": "45 km",
      "facilities": ["hiking", "nature_reserve"],
      "images": ["porto_selvaggio.jpg"]
    },
    {
      "id": "baia-verde",
      "name": "Gallipoli - Baia Verde",
      "lat": 40.05,
      "lng": 17.9833,
      "type": "beach",
      "sandType": "fine_sand",
      "protectedFrom": ["E", "NE", "SE"],
      "exposed": ["W", "NW", "SW"],
      "description": "Lively beach with nightlife and beach clubs",
      "translationKey": "beach_baia_verde",
      "bookingLink": null,
      "distance": "55 km",
      "facilities": ["parking", "beach_clubs", "restaurants", "nightlife"],
      "images": []
    },
    {
      "id": "punta-suina",
      "name": "Gallipoli - Punta della Suina",
      "lat": 40.0167,
      "lng": 17.95,
      "type": "beach",
      "sandType": "golden_sand",
      "protectedFrom": ["E", "NE", "SE"],
      "exposed": ["W", "NW", "SW"],
      "description": "Beautiful golden sand beach on Ionian coast",
      "translationKey": "beach_punta_suina",
      "bookingLink": null,
      "distance": "58 km",
      "facilities": ["parking", "beach_bar", "umbrellas"],
      "images": ["punta-della-suina.jpg"]
    },
    {
      "id": "porto-cesareo",
      "name": "Porto Cesareo",
      "lat": 40.2667,
      "lng": 17.9,
      "type": "beach",
      "sandType": "fine_sand",
      "protectedFrom": ["E", "NE", "SE"],
      "exposed": ["W", "NW", "SW"],
      "description": "Marine protected area with crystal clear water",
      "translationKey": "beach_porto_cesareo",
      "bookingLink": null,
      "distance": "40 km",
      "facilities": ["parking", "restaurants", "boat_tours", "diving"],
      "images": []
    },
    {
      "id": "santa-maria-bagno",
      "name": "Santa Maria al Bagno",
      "lat": 40.1833,
      "lng": 17.9667,
      "type": "beach",
      "sandType": "rocks",
      "protectedFrom": ["E", "NE", "SE"],
      "exposed": ["W", "NW", "SW"],
      "description": "Rocky cliffs with natural pools",
      "translationKey": "beach_santa_maria_bagno",
      "bookingLink": null,
      "distance": "48 km",
      "facilities": ["parking", "restaurants"],
      "images": []
    },
    {
      "id": "santa-caterina",
      "name": "Santa Caterina",
      "lat": 40.0667,
      "lng": 18.0333,
      "type": "beach",
      "sandType": "rocks",
      "protectedFrom": ["E", "NE", "SE"],
      "exposed": ["W", "NW", "SW"],
      "description": "Spectacular caves and rocky cliffs",
      "translationKey": "beach_santa_caterina",
      "bookingLink": null,
      "distance": "52 km",
      "facilities": ["parking", "diving"],
      "images": []
    },
    {
      "id": "torre-san-giovanni",
      "name": "Torre San Giovanni",
      "lat": 39.9333,
      "lng": 18.0833,
      "type": "beach",
      "sandType": "fine_sand",
      "protectedFrom": ["E", "NE", "N"],
      "exposed": ["W", "SW", "S"],
      "description": "Family-friendly sandy beach with shallow water",
      "translationKey": "beach_torre_san_giovanni",
      "bookingLink": null,
      "distance": "65 km",
      "facilities": ["parking", "restaurants", "umbrellas", "playgrounds"],
      "images": []
    }
  ],
  "attractions": [
    {
      "id": "lecce",
      "name": "Lecce",
      "lat": 40.3515,
      "lng": 18.175,
      "type": "attraction",
      "category": "city",
      "description": "Baroque capital of Puglia with stunning architecture",
      "translationKey": "attraction_lecce",
      "address": "Lecce, LE",
      "distance": "30 km",
      "visitDuration": "half_day",
      "images": []
    },
    {
      "id": "gallipoli",
      "name": "Gallipoli",
      "lat": 40.0556,
      "lng": 17.9922,
      "type": "attraction",
      "category": "city",
      "description": "Beautiful coastal city with historic old town on island",
      "translationKey": "attraction_gallipoli",
      "address": "Gallipoli, LE",
      "distance": "55 km",
      "visitDuration": "full_day",
      "images": []
    },
    {
      "id": "otranto",
      "name": "Otranto",
      "lat": 40.1436,
      "lng": 18.4908,
      "type": "attraction",
      "category": "city",
      "description": "Historic coastal town with stunning cathedral and castle",
      "translationKey": "attraction_otranto",
      "address": "Otranto, LE",
      "distance": "6 km",
      "visitDuration": "half_day",
      "images": []
    },
    {
      "id": "santa-maria-leuca",
      "name": "Santa Maria di Leuca",
      "lat": 39.7972,
      "lng": 18.3611,
      "type": "attraction",
      "category": "landmark",
      "description": "Southernmost point of Puglia where Adriatic and Ionian seas meet",
      "translationKey": "attraction_leuca",
      "address": "Santa Maria di Leuca, LE",
      "distance": "35 km",
      "visitDuration": "half_day",
      "images": []
    },
    {
      "id": "cava-bauxite",
      "name": "Cava di Bauxite",
      "lat": 40.11,
      "lng": 18.47,
      "type": "attraction",
      "category": "natural",
      "description": "Former bauxite quarry with emerald lake and red earth",
      "translationKey": "attraction_bauxite",
      "address": "Otranto, LE",
      "distance": "4 km",
      "visitDuration": "1_hour",
      "images": []
    },
    {
      "id": "grotta-zinzulusa",
      "name": "Grotta Zinzulusa",
      "lat": 40.0083,
      "lng": 18.425,
      "type": "attraction",
      "category": "cave",
      "description": "Spectacular marine cave with stalactites and stalagmites",
      "translationKey": "attraction_zinzulusa",
      "address": "Castro, LE",
      "distance": "12 km",
      "visitDuration": "2_hours",
      "images": []
    },
    {
      "id": "punta-palascia",
      "name": "Punta Palascia",
      "lat": 40.1083,
      "lng": 18.5194,
      "type": "attraction",
      "category": "landmark",
      "description": "Easternmost point of Italy with lighthouse and stunning views",
      "translationKey": "attraction_palascia",
      "address": "Otranto, LE",
      "distance": "7 km",
      "visitDuration": "1_hour",
      "images": []
    },
    {
      "id": "cattedrale-otranto",
      "name": "Cattedrale di Otranto",
      "lat": 40.1436,
      "lng": 18.4916,
      "type": "attraction",
      "category": "religious",
      "description": "Medieval cathedral with stunning mosaic floor",
      "translationKey": "attraction_cattedrale",
      "address": "Piazza Basilica, Otranto",
      "distance": "6 km",
      "visitDuration": "1_hour",
      "images": []
    }
  ],
  "nightlife": [
    {
      "id": "avamposto",
      "name": "Avamposto",
      "lat": 40.0975,
      "lng": 18.392,
      "type": "nightlife",
      "category": "beach_club",
      "description": "Popular beach club with music and cocktails",
      "translationKey": "nightlife_avamposto",
      "address": "Castro Marina, LE",
      "distance": "12 km",
      "images": []
    },
    {
      "id": "skafe",
      "name": "Skafe al Casotto",
      "lat": 40.1436,
      "lng": 18.4916,
      "type": "nightlife",
      "category": "bar",
      "description": "Trendy bar in Otranto historic center",
      "translationKey": "nightlife_skafe",
      "address": "Otranto, LE",
      "distance": "6 km",
      "images": []
    },
    {
      "id": "spinnaker",
      "name": "Spinnaker",
      "lat": 40.2667,
      "lng": 18.4167,
      "type": "nightlife",
      "category": "beach_club",
      "description": "Beach club with restaurant and evening entertainment",
      "translationKey": "nightlife_spinnaker",
      "address": "Torre dell'Orso, LE",
      "distance": "19 km",
      "images": []
    },
    {
      "id": "la-casaccia",
      "name": "La Casaccia",
      "lat": 40.143,
      "lng": 18.49,
      "type": "nightlife",
      "category": "restaurant_bar",
      "description": "Restaurant and cocktail bar in Otranto",
      "translationKey": "nightlife_casaccia",
      "address": "Otranto, LE",
      "distance": "6 km",
      "images": []
    },
    {
      "id": "blu-bay",
      "name": "Blu Bay",
      "lat": 40.0167,
      "lng": 18.43,
      "type": "nightlife",
      "category": "beach_club",
      "description": "Beach club with restaurant and live music",
      "translationKey": "nightlife_blubay",
      "address": "Santa Cesarea Terme, LE",
      "distance": "11 km",
      "images": []
    },
    {
      "id": "guendalina",
      "name": "Guendalina",
      "lat": 40.0333,
      "lng": 18.45,
      "type": "nightlife",
      "category": "beach_club",
      "description": "Exclusive beach club and restaurant",
      "translationKey": "nightlife_guendalina",
      "address": "Santa Cesarea Terme, LE",
      "distance": "11 km",
      "images": []
    },
    {
      "id": "male",
      "name": "Malé",
      "lat": 40.034,
      "lng": 18.451,
      "type": "nightlife",
      "category": "beach_club",
      "description": "Stylish beach club with DJ sets",
      "translationKey": "nightlife_male",
      "address": "Santa Cesarea Terme, LE",
      "distance": "11 km",
      "images": []
    }
  ],
  "services": [
    {
      "id": "conad-uggiano",
      "name": "Supermercato Conad",
      "lat": 40.102983,
      "lng": 18.456386,
      "type": "service",
      "category": "supermarket",
      "description": "Main supermarket in Uggiano la Chiesa",
      "translationKey": "service_conad",
      "address": "Uggiano la Chiesa, LE",
      "distance": "800 m",
      "hours": "Mon-Sat 8:00-13:00, 17:00-20:30",
      "images": []
    },
    {
      "id": "eurospin",
      "name": "Eurospin",
      "lat": 40.105,
      "lng": 18.448,
      "type": "service",
      "category": "supermarket",
      "description": "Discount supermarket",
      "translationKey": "service_eurospin",
      "address": "Uggiano la Chiesa, LE",
      "distance": "1 km",
      "hours": "Mon-Sat 8:30-20:00",
      "images": []
    },
    {
      "id": "farmacia-comunale",
      "name": "Farmacia Comunale",
      "lat": 40.100935,
      "lng": 18.446268,
      "type": "service",
      "category": "pharmacy",
      "description": "Local pharmacy",
      "translationKey": "service_farmacia",
      "address": "Uggiano la Chiesa, LE",
      "distance": "400 m",
      "hours": "Mon-Sat 9:00-13:00, 16:30-20:00",
      "images": []
    },
    {
      "id": "lavanderia",
      "name": "Lavanderia Self-Service",
      "lat": 40.099987,
      "lng": 18.443185,
      "type": "service",
      "category": "laundry",
      "description": "Self-service laundromat",
      "translationKey": "service_lavanderia",
      "address": "Uggiano la Chiesa, LE",
      "distance": "600 m",
      "hours": "24/7",
      "images": []
    }
  ],
  "restaurants": [
    {
      "id": "la-vecchia-osteria",
      "name": "Ristorante La Vecchia Osteria",
      "lat": 40.101,
      "lng": 18.445,
      "type": "restaurant",
      "category": "traditional",
      "description": "Traditional Salento cuisine",
      "translationKey": "restaurant_vecchia_osteria",
      "address": "Uggiano la Chiesa, LE",
      "distance": "500 m",
      "cuisine": "pugliese",
      "priceRange": "medium",
      "images": []
    },
    {
      "id": "bar-centrale",
      "name": "Bar Centrale",
      "lat": 40.1025,
      "lng": 18.446,
      "type": "restaurant",
      "category": "cafe",
      "description": "Local café for breakfast and aperitivo",
      "translationKey": "restaurant_bar_centrale",
      "address": "Uggiano la Chiesa, LE",
      "distance": "300 m",
      "cuisine": "cafe",
      "priceRange": "low",
      "images": []
    },
    {
      "id": "pizzeria-da-mimmo",
      "name": "Pizzeria Da Mimmo",
      "lat": 40.103,
      "lng": 18.447,
      "type": "restaurant",
      "category": "pizzeria",
      "description": "Wood-fired pizza",
      "translationKey": "restaurant_da_mimmo",
      "address": "Uggiano la Chiesa, LE",
      "distance": "700 m",
      "cuisine": "pizza",
      "priceRange": "low",
      "images": []
    },
    {
      "id": "locanda-del-gusto",
      "name": "La Locanda del Gusto",
      "lat": 40.104,
      "lng": 18.448,
      "type": "restaurant",
      "category": "contemporary",
      "description": "Contemporary take on traditional dishes",
      "translationKey": "restaurant_locanda_gusto",
      "address": "Uggiano la Chiesa, LE",
      "distance": "900 m",
      "cuisine": "contemporary",
      "priceRange": "medium_high",
      "images": []
    }
  ]
}
